[
  {
    "id": 1,
    "category": "transport",
    "name": "Tokyo Metro Tourist Pass",
    "city": "Tokyo",
    "country": "Japan",
    "rating": 4.8,
    "price": "$8/day",
    "description": "Unlimited subway rides for top attractions across Tokyo districts.",
    "lat": 35.6762,
    "lng": 139.6503
  },
  {
    "id": 2,
    "category": "hotels",
    "name": "Santorini Cliff Resort",
    "city": "Santorini",
    "country": "Greece",
    "rating": 4.9,
    "price": "$220/night",
    "description": "Caldera-view suites with breakfast and airport transfer included.",
    "lat": 36.3932,
    "lng": 25.4615
  },
  {
    "id": 3,
    "category": "food",
    "name": "Seoul Night Market Bites",
    "city": "Seoul",
    "country": "South Korea",
    "rating": 4.7,
    "price": "$38/person",
    "description": "Guided street-food tasting route through Seoul's most iconic night markets.",
    "lat": 37.5665,
    "lng": 126.978
  },
  {
    "id": 4,
    "category": "activities",
    "name": "Swiss Alps Panorama Rail & Hike",
    "city": "Interlaken",
    "country": "Switzerland",
    "rating": 4.8,
    "price": "$129/person",
    "description": "Scenic alpine rail journey paired with a guided ridge-line hiking experience.",
    "lat": 46.6863,
    "lng": 7.8632
  },
  {
    "id": 5,
    "category": "tours",
    "name": "Paris Hidden Passages Walking Tour",
    "city": "Paris",
    "country": "France",
    "rating": 4.6,
    "price": "$34/person",
    "description": "Local-led stroll through historic covered arcades and lesser-known neighborhoods.",
    "lat": 48.8566,
    "lng": 2.3522
  },
  {
    "id": 6,
    "category": "transport",
    "name": "Kansai Regional Rail Pass",
    "city": "Osaka",
    "country": "Japan",
    "rating": 4.7,
    "price": "$26/day",
    "description": "Flexible rail access across Osaka, Kyoto, and Nara with reserved-seat options.",
    "lat": 34.6937,
    "lng": 135.5023
  }
]
